{"hasZ":true,"type":"FeatureCollection","features":[{"type":"Feature","id":1,"geometry":{"type":"Point","coordinates":[-102.47860152616971,51.033577370130502,0]},"properties":{"OBJECTID":1,"UNIQUE_ID":"MSC2025A16","NAME":"Crescent Lake"}},{"type":"Feature","id":2,"geometry":{"type":"Point","coordinates":[-102.67934631525161,50.612146804557781,0]},"properties":{"OBJECTID":2,"UNIQUE_ID":"MSC2025A18","NAME":"Crooked Lake"}},{"type":"Feature","id":3,"geometry":{"type":"Point","coordinates":[-106.87727043321063,53.528762178353972,0]},"properties":{"OBJECTID":3,"UNIQUE_ID":"MSC2025A21","NAME":"Debden"}},{"type":"Feature","id":4,"geometry":{"type":"Point","coordinates":[-108.35251180765216,53.361994356730747,0]},"properties":{"OBJECTID":4,"UNIQUE_ID":"MSC2025A37","NAME":"Glaslyn"}},{"type":"Feature","id":5,"geometry":{"type":"Point","coordinates":[-103.58089183692825,50.650607945227904,0]},"properties":{"OBJECTID":5,"UNIQUE_ID":"MSC2025A46","NAME":"Katepwa Lake"}},{"type":"Feature","id":6,"geometry":{"type":"Point","coordinates":[-103.69499683336224,50.751189817638164,0]},"properties":{"OBJECTID":6,"UNIQUE_ID":"MSC2025A53","NAME":"Lebret"}},{"type":"Feature","id":7,"geometry":{"type":"Point","coordinates":[-103.90594257011205,51.288292797709033,0]},"properties":{"OBJECTID":7,"UNIQUE_ID":"MSC2025A55","NAME":"Lestock"}},{"type":"Feature","id":8,"geometry":{"type":"Point","coordinates":[-106.77233144259223,53.66211568269587,0]},"properties":{"OBJECTID":8,"UNIQUE_ID":"MSC2025A65","NAME":"Park Valley"}},{"type":"Feature","id":9,"geometry":{"type":"Point","coordinates":[-106.64791282639752,52.106883096687845,0]},"properties":{"OBJECTID":9,"UNIQUE_ID":"MSC2025A76","NAME":"Saskatoon"}},{"type":"Feature","id":10,"geometry":{"type":"Point","coordinates":[-105.63775121948873,49.365758441508262,0]},"properties":{"OBJECTID":10,"UNIQUE_ID":"MSC2025A81","NAME":"The Hamlet"}},{"type":"Feature","id":11,"geometry":{"type":"Point","coordinates":[-107.99617141283608,51.548815826075021,0]},"properties":{"OBJECTID":11,"UNIQUE_ID":"MSC2025A71","NAME":"Rosetown"}}]}